{"type":"FeatureCollection", "features": [
{"type":"Feature","geometry":{"type":"Point","coordinates":[10.5925920819,43.4737606542,0]},"properties":{"name":"Pelo 2","description":"30 set 2016  3:02 pm","styleUrl":"#icon-503-DB4436","icon-opacity":1,"icon-color":"#db4436","icon-scale":1.1,"icon-offset":[16,32],"icon-offset-units":["pixels","insetPixels"],"icon":"https://www.gstatic.com/mapspro/images/stock/503-wht-blank_maps.png"}},
{"type":"Feature","geometry":{"type":"Point","coordinates":[10.5928014624,43.9536994356,19.4]},"properties":{"name":"Pizzorne Mirtillo","description":"07 ott 2016 11:11 am","styleUrl":"#icon-503-DB4436","icon-opacity":1,"icon-color":"#db4436","icon-scale":1.1,"icon-offset":[16,32],"icon-offset-units":["pixels","insetPixels"],"icon":"https://www.gstatic.com/mapspro/images/stock/503-wht-blank_maps.png"}},
{"type":"Feature","geometry":{"type":"Point","coordinates":[10.5974534154,43.951789951,950.6]},"properties":{"name":"Pizzorne3","description":"07 ott 2016  7:58 am","styleUrl":"#icon-503-DB4436","icon-opacity":1,"icon-color":"#db4436","icon-scale":1.1,"icon-offset":[16,32],"icon-offset-units":["pixels","insetPixels"],"icon":"https://www.gstatic.com/mapspro/images/stock/503-wht-blank_maps.png"}},
{"type":"Feature","geometry":{"type":"Point","coordinates":[10.5901269615,43.9520589263,921.5]},"properties":{"name":"Viottolo Rete","description":"11 Oct 2019 11:53 am","styleUrl":"#icon-503-DB4436","icon-opacity":1,"icon-color":"#db4436","icon-scale":1.1,"icon-offset":[16,32],"icon-offset-units":["pixels","insetPixels"],"icon":"https://www.gstatic.com/mapspro/images/stock/503-wht-blank_maps.png"}},
{"type":"Feature","geometry":{"type":"Point","coordinates":[10.5984157,43.9327127,887.2]},"properties":{"name":"Inizio di Abetaia Pizzorne","description":{"@type":"html","value":"venerdì 6 ottobre 2017 14.36 CEST<br>Altezza: 887 m"},"styleUrl":"#icon-61","icon-scale":1.1,"icon-offset":[16,32],"icon-offset-units":["pixels","insetPixels"],"icon":"https://www.gstatic.com/mapspro/images/stock/61-green-dot.png"}},
{"type":"Feature","geometry":{"type":"Point","coordinates":[10.732763,44.095972,995.1]},"properties":{"name":"Inizio di alternativa strada balzo cinghiale","description":{"@type":"html","value":"lunedì 21 settembre 2020 10.51 CEST<br>Altezza: 995 m"},"styleUrl":"#icon-61","icon-scale":1.1,"icon-offset":[16,32],"icon-offset-units":["pixels","insetPixels"],"icon":"https://www.gstatic.com/mapspro/images/stock/61-green-dot.png"}},
{"type":"Feature","geometry":{"type":"Point","coordinates":[10.69681,44.05829,623.3]},"properties":{"name":"Inizio di BalzoNero a PiandiNovello","description":{"@type":"html","value":"lunedì 21 settembre 2020 12.37 CEST<br>Altezza: 623 m"},"styleUrl":"#icon-61","icon-scale":1.1,"icon-offset":[16,32],"icon-offset-units":["pixels","insetPixels"],"icon":"https://www.gstatic.com/mapspro/images/stock/61-green-dot.png"}},
{"type":"Feature","geometry":{"type":"Point","coordinates":[10.583938,43.4784389,362.8]},"properties":{"name":"Inizio di Boschetto di Andrea","description":{"@type":"html","value":"martedì 22 settembre 2020 14.56 CEST<br>Altezza: 363 m"},"styleUrl":"#icon-61","icon-scale":1.1,"icon-offset":[16,32],"icon-offset-units":["pixels","insetPixels"],"icon":"https://www.gstatic.com/mapspro/images/stock/61-green-dot.png"}},
{"type":"Feature","geometry":{"type":"Point","coordinates":[10.50601,43.755512,619.2]},"properties":{"name":"Inizio di campo di croce","description":{"@type":"html","value":"giovedì 14 ottobre 2021 10.09 CEST<br>Altezza: 619 m"},"styleUrl":"#icon-61","icon-scale":1.1,"icon-offset":[16,32],"icon-offset-units":["pixels","insetPixels"],"icon":"https://www.gstatic.com/mapspro/images/stock/61-green-dot.png"}},
{"type":"Feature","geometry":{"type":"Point","coordinates":[10.515916,43.761571,683.6]},"properties":{"name":"Inizio di campo di croce1","description":{"@type":"html","value":"giovedì 14 ottobre 2021 10.47 CEST<br>Altezza: 684 m"},"styleUrl":"#icon-61","icon-scale":1.1,"icon-offset":[16,32],"icon-offset-units":["pixels","insetPixels"],"icon":"https://www.gstatic.com/mapspro/images/stock/61-green-dot.png"}},
{"type":"Feature","geometry":{"type":"Point","coordinates":[10.582924,43.951664,746.8]},"properties":{"name":"Inizio di catino pizzorne","description":{"@type":"html","value":"giovedì 14 ottobre 2021 18.15 CEST<br>Altezza: 747 m"},"styleUrl":"#icon-61","icon-scale":1.1,"icon-offset":[16,32],"icon-offset-units":["pixels","insetPixels"],"icon":"https://www.gstatic.com/mapspro/images/stock/61-green-dot.png"}},
{"type":"Feature","geometry":{"type":"Point","coordinates":[10.4882762,43.5708069,77.7]},"properties":{"name":"Inizio di Collesalvetti 21-10-15","description":{"@type":"html","value":"venerdì 15 ottobre 2021 13.20 CEST<br>Altezza: 78 m"},"styleUrl":"#icon-61","icon-scale":1.1,"icon-offset":[16,32],"icon-offset-units":["pixels","insetPixels"],"icon":"https://www.gstatic.com/mapspro/images/stock/61-green-dot.png"}},
{"type":"Feature","geometry":{"type":"Point","coordinates":[10.484194,43.577561,65.4]},"properties":{"name":"Inizio di Maps3D 2021-10-14 01-30pm","description":{"@type":"html","value":"venerdì 15 ottobre 2021 13.53 CEST<br>Altezza: 65 m"},"styleUrl":"#icon-61","icon-scale":1.1,"icon-offset":[16,32],"icon-offset-units":["pixels","insetPixels"],"icon":"https://www.gstatic.com/mapspro/images/stock/61-green-dot.png"}},
{"type":"Feature","geometry":{"type":"Point","coordinates":[10.675941,44.127922,1259.6]},"properties":{"name":"Inizio di Lago Nero sentiero 104","description":{"@type":"html","value":"sabato 16 ottobre 2021 11.48 CEST<br>Altezza: 1260 m"},"styleUrl":"#icon-61","icon-scale":1.1,"icon-offset":[16,32],"icon-offset-units":["pixels","insetPixels"],"icon":"https://www.gstatic.com/mapspro/images/stock/61-green-dot.png"}},
{"type":"Feature","geometry":{"type":"Point","coordinates":[10.6055,43.945589,929.2]},"properties":{"name":"Inizio di lugnano","description":{"@type":"html","value":"sabato 16 ottobre 2021 19.26 CEST<br>Altezza: 929 m"},"styleUrl":"#icon-61","icon-scale":1.1,"icon-offset":[16,32],"icon-offset-units":["pixels","insetPixels"],"icon":"https://www.gstatic.com/mapspro/images/stock/61-green-dot.png"}},
{"type":"Feature","geometry":{"type":"Point","coordinates":[10.257937,44.228277,1012.3]},"properties":{"name":"Inizio di Magliano Cerro","description":{"@type":"html","value":"domenica 17 ottobre 2021 10.05 CEST<br>Altezza: 1012 m"},"styleUrl":"#icon-61","icon-scale":1.1,"icon-offset":[16,32],"icon-offset-units":["pixels","insetPixels"],"icon":"https://www.gstatic.com/mapspro/images/stock/61-green-dot.png"}},
{"type":"Feature","geometry":{"type":"Point","coordinates":[10.5867941,43.4836244,309.7]},"properties":{"name":"Inizio di Maiali Quercione","description":{"@type":"html","value":"lunedì 18 ottobre 2021 16.20 CEST<br>Altezza: 310 m"},"styleUrl":"#icon-61","icon-scale":1.1,"icon-offset":[16,32],"icon-offset-units":["pixels","insetPixels"],"icon":"https://www.gstatic.com/mapspro/images/stock/61-green-dot.png"}},
{"type":"Feature","geometry":{"type":"Point","coordinates":[10.595527,43.480771,462.3]},"properties":{"name":"Inizio di Maps3D 2020-10-25 12-08am","description":{"@type":"html","value":"lunedì 18 ottobre 2021 18.40 CEST<br>Altezza: 462 m"},"styleUrl":"#icon-61","icon-scale":1.1,"icon-offset":[16,32],"icon-offset-units":["pixels","insetPixels"],"icon":"https://www.gstatic.com/mapspro/images/stock/61-green-dot.png"}},
{"type":"Feature","geometry":{"type":"Point","coordinates":[10.588356,43.46255,488.4]},"properties":{"name":"Inizio di Maps3D 2021-11-20 05-01pm","description":{"@type":"html","value":"sabato 20 novembre 2021 15.48 CET<br>Altezza: 488 m"},"styleUrl":"#icon-61","icon-scale":1.1,"icon-offset":[16,32],"icon-offset-units":["pixels","insetPixels"],"icon":"https://www.gstatic.com/mapspro/images/stock/61-green-dot.png"}},
{"type":"Feature","geometry":{"type":"Point","coordinates":[10.4360682,43.5864941,38.1]},"properties":{"name":"Inizio di Nugola 23-10-15","description":{"@type":"html","value":"sabato 20 novembre 2021 19.53 CET<br>Altezza: 38 m"},"styleUrl":"#icon-61","icon-scale":1.1,"icon-offset":[16,32],"icon-offset-units":["pixels","insetPixels"],"icon":"https://www.gstatic.com/mapspro/images/stock/61-green-dot.png"}},
{"type":"Feature","geometry":{"type":"Point","coordinates":[10.4418816,43.585044,45.7]},"properties":{"name":"Inizio di Nugola 31-10-14","description":{"@type":"html","value":"sabato 20 novembre 2021 23.24 CET<br>Altezza: 46 m"},"styleUrl":"#icon-61","icon-scale":1.1,"icon-offset":[16,32],"icon-offset-units":["pixels","insetPixels"],"icon":"https://www.gstatic.com/mapspro/images/stock/61-green-dot.png"}},
{"type":"Feature","geometry":{"type":"Point","coordinates":[11.1822306,43.2094701,454.5]},"properties":{"name":"Inizio di Pentolina","description":{"@type":"html","value":"lunedì 22 novembre 2021 2.16 CET<br>Altezza: 455 m"},"styleUrl":"#icon-61","icon-scale":1.1,"icon-offset":[16,32],"icon-offset-units":["pixels","insetPixels"],"icon":"https://www.gstatic.com/mapspro/images/stock/61-green-dot.png"}},
{"type":"Feature","geometry":{"type":"Point","coordinates":[10.582841,43.950798,749]},"properties":{"name":"Inizio di Maps3D 2021-10-23 12-33am","description":{"@type":"html","value":"martedì 23 novembre 2021 9.52 CET<br>Altezza: 749 m"},"styleUrl":"#icon-61","icon-scale":1.1,"icon-offset":[16,32],"icon-offset-units":["pixels","insetPixels"],"icon":"https://www.gstatic.com/mapspro/images/stock/61-green-dot.png"}},
{"type":"Feature","geometry":{"type":"Point","coordinates":[10.4983719,43.5575472,48.3]},"properties":{"name":"Inizio di Acciaiolo 25-10-14","description":{"@type":"html","value":"mercoledì 24 novembre 2021 5.20 CET<br>Altezza: 48 m"},"styleUrl":"#icon-61","icon-scale":1.1,"icon-offset":[16,32],"icon-offset-units":["pixels","insetPixels"],"icon":"https://www.gstatic.com/mapspro/images/stock/61-green-dot.png"}},
{"type":"Feature","geometry":{"type":"Point","coordinates":[10.4983719,43.5575472,48.3]},"properties":{"name":"Inizio di Acciaiolo 25-10-14","description":{"@type":"html","value":"mercoledì 24 novembre 2021 11.00 CET<br>Altezza: 48 m"},"styleUrl":"#icon-61","icon-scale":1.1,"icon-offset":[16,32],"icon-offset-units":["pixels","insetPixels"],"icon":"https://www.gstatic.com/mapspro/images/stock/61-green-dot.png"}},
{"type":"Feature","geometry":{"type":"Point","coordinates":[10.7057686,44.0760471,1001.5]},"properties":{"name":"Inizio di Balzo Nero 17-10-13","description":{"@type":"html","value":"giovedì 25 novembre 2021 8.13 CET<br>Altezza: 1002 m"},"styleUrl":"#icon-61","icon-scale":1.1,"icon-offset":[16,32],"icon-offset-units":["pixels","insetPixels"],"icon":"https://www.gstatic.com/mapspro/images/stock/61-green-dot.png"}},
{"type":"Feature","geometry":{"type":"Point","coordinates":[10.6035091,43.9493817,963.6]},"properties":{"name":"Inizio di Pizzorne 3","description":{"@type":"html","value":"giovedì 25 novembre 2021 18.19 CET<br>Altezza: 964 m"},"styleUrl":"#icon-61","icon-scale":1.1,"icon-offset":[16,32],"icon-offset-units":["pixels","insetPixels"],"icon":"https://www.gstatic.com/mapspro/images/stock/61-green-dot.png"}},
{"type":"Feature","geometry":{"type":"Point","coordinates":[10.5942728,43.9510497,869.7]},"properties":{"name":"Inizio di Pizzorne 2017","description":{"@type":"html","value":"giovedì 25 novembre 2021 20.29 CET<br>Altezza: 870 m"},"styleUrl":"#icon-61","icon-scale":1.1,"icon-offset":[16,32],"icon-offset-units":["pixels","insetPixels"],"icon":"https://www.gstatic.com/mapspro/images/stock/61-green-dot.png"}},
{"type":"Feature","geometry":{"type":"Point","coordinates":[10.598097,43.953172,961.1]},"properties":{"name":"Inizio di Pizzorne da solo 30-10-21","description":{"@type":"html","value":"giovedì 25 novembre 2021 23.25 CET<br>Altezza: 961 m"},"styleUrl":"#icon-61","icon-scale":1.1,"icon-offset":[16,32],"icon-offset-units":["pixels","insetPixels"],"icon":"https://www.gstatic.com/mapspro/images/stock/61-green-dot.png"}},
{"type":"Feature","geometry":{"type":"Point","coordinates":[10.595729,43.942214,825.2]},"properties":{"name":"Inizio di pizzorne Terios","description":{"@type":"html","value":"venerdì 26 novembre 2021 3.31 CET<br>Altezza: 825 m"},"styleUrl":"#icon-61","icon-scale":1.1,"icon-offset":[16,32],"icon-offset-units":["pixels","insetPixels"],"icon":"https://www.gstatic.com/mapspro/images/stock/61-green-dot.png"}},
{"type":"Feature","geometry":{"type":"Point","coordinates":[10.4978228,43.5593312,83.5]},"properties":{"name":"Inizio di Fonte del merlo 06-11-15","description":{"@type":"html","value":"venerdì 26 novembre 2021 22.21 CET<br>Altezza: 84 m"},"styleUrl":"#icon-61","icon-scale":1.1,"icon-offset":[16,32],"icon-offset-units":["pixels","insetPixels"],"icon":"https://www.gstatic.com/mapspro/images/stock/61-green-dot.png"}},
{"type":"Feature","geometry":{"type":"Point","coordinates":[10.4731594,44.1363699,758.8]},"properties":{"name":"Inizio di Fosciandora 09-10-15","description":{"@type":"html","value":"sabato 27 novembre 2021 23.23 CET<br>Altezza: 759 m"},"styleUrl":"#icon-61","icon-scale":1.1,"icon-offset":[16,32],"icon-offset-units":["pixels","insetPixels"],"icon":"https://www.gstatic.com/mapspro/images/stock/61-green-dot.png"}},
{"type":"Feature","geometry":{"type":"Point","coordinates":[10.5892724,43.4862081,397.1]},"properties":{"name":"Inizio di Monteforti 18-10-12","description":{"@type":"html","value":"lunedì 29 novembre 2021 2.25 CET<br>Altezza: 397 m"},"styleUrl":"#icon-61","icon-scale":1.1,"icon-offset":[16,32],"icon-offset-units":["pixels","insetPixels"],"icon":"https://www.gstatic.com/mapspro/images/stock/61-green-dot.png"}},
{"type":"Feature","geometry":{"type":"Point","coordinates":[10.3600964,44.2279903,1196.4]},"properties":{"name":"Inizio di Parco dell'orecchiella","description":{"@type":"html","value":"martedì 30 novembre 2021 8.47 CET<br>Altezza: 1196 m"},"styleUrl":"#icon-61","icon-scale":1.1,"icon-offset":[16,32],"icon-offset-units":["pixels","insetPixels"],"icon":"https://www.gstatic.com/mapspro/images/stock/61-green-dot.png"}},
{"type":"Feature","geometry":{"type":"Point","coordinates":[10.6107551,43.9591817,978.4]},"properties":{"name":"Inizio di Pizzorne 2","description":{"@type":"html","value":"mercoledì 1 dicembre 2021 1.27 CET<br>Altezza: 978 m"},"styleUrl":"#icon-61","icon-scale":1.1,"icon-offset":[16,32],"icon-offset-units":["pixels","insetPixels"],"icon":"https://www.gstatic.com/mapspro/images/stock/61-green-dot.png"}},
{"type":"Feature","geometry":{"type":"Point","coordinates":[10.6035985,43.9493698,970.9]},"properties":{"name":"Inizio di Pizzorne","description":{"@type":"html","value":"mercoledì 1 dicembre 2021 3.43 CET<br>Altezza: 971 m"},"styleUrl":"#icon-61","icon-scale":1.1,"icon-offset":[16,32],"icon-offset-units":["pixels","insetPixels"],"icon":"https://www.gstatic.com/mapspro/images/stock/61-green-dot.png"}},
{"type":"Feature","geometry":{"type":"Point","coordinates":[10.6063464,43.4767707,572.1]},"properties":{"name":"Inizio di Santa Luce 99","description":{"@type":"html","value":"giovedì 2 dicembre 2021 0.08 CET<br>Altezza: 572 m"},"styleUrl":"#icon-61","icon-scale":1.1,"icon-offset":[16,32],"icon-offset-units":["pixels","insetPixels"],"icon":"https://www.gstatic.com/mapspro/images/stock/61-green-dot.png"}},
{"type":"Feature","geometry":{"type":"Point","coordinates":[10.5894869,43.4855024,355.3]},"properties":{"name":"Inizio di Santa Luce 26-10-13","description":{"@type":"html","value":"giovedì 2 dicembre 2021 1.51 CET<br>Altezza: 355 m"},"styleUrl":"#icon-61","icon-scale":1.1,"icon-offset":[16,32],"icon-offset-units":["pixels","insetPixels"],"icon":"https://www.gstatic.com/mapspro/images/stock/61-green-dot.png"}},
{"type":"Feature","geometry":{"type":"Point","coordinates":[10.6523484,43.1142139,346.1]},"properties":{"name":"Inizio di Sassetta","description":{"@type":"html","value":"giovedì 2 dicembre 2021 17.40 CET<br>Altezza: 346 m"},"styleUrl":"#icon-61","icon-scale":1.1,"icon-offset":[16,32],"icon-offset-units":["pixels","insetPixels"],"icon":"https://www.gstatic.com/mapspro/images/stock/61-green-dot.png"}},
{"type":"Feature","geometry":{"type":"Point","coordinates":[10.7279185,44.0915458,1270.6]},"properties":{"name":"Inizio di Pian degli Ontani Balzo nero","description":{"@type":"html","value":"sabato 4 dicembre 2021 7.26 CET<br>Altezza: 1271 m"},"styleUrl":"#icon-61","icon-scale":1.1,"icon-offset":[16,32],"icon-offset-units":["pixels","insetPixels"],"icon":"https://www.gstatic.com/mapspro/images/stock/61-green-dot.png"}},
{"type":"Feature","geometry":{"type":"Point","coordinates":[10.5725808,43.4934431,299.4]},"properties":{"name":"Inizio di Quercione","description":{"@type":"html","value":"domenica 5 dicembre 2021 11.26 CET<br>Altezza: 299 m"},"styleUrl":"#icon-61","icon-scale":1.1,"icon-offset":[16,32],"icon-offset-units":["pixels","insetPixels"],"icon":"https://www.gstatic.com/mapspro/images/stock/61-green-dot.png"}},
{"type":"Feature","geometry":{"type":"Point","coordinates":[10.5403471,44.130241,1314]},"properties":{"name":"Inizio di Renaio 17-10-15","description":{"@type":"html","value":"lunedì 6 dicembre 2021 13.55 CET<br>Altezza: 1314 m"},"styleUrl":"#icon-61","icon-scale":1.1,"icon-offset":[16,32],"icon-offset-units":["pixels","insetPixels"],"icon":"https://www.gstatic.com/mapspro/images/stock/61-green-dot.png"}},
{"type":"Feature","geometry":{"type":"Point","coordinates":[10.5874906,43.479625,423]},"properties":{"name":"Inizio di Santa Luce 30-09-16","description":{"@type":"html","value":"martedì 7 dicembre 2021 18.39 CET<br>Altezza: 423 m"},"styleUrl":"#icon-61","icon-scale":1.1,"icon-offset":[16,32],"icon-offset-units":["pixels","insetPixels"],"icon":"https://www.gstatic.com/mapspro/images/stock/61-green-dot.png"}},
{"type":"Feature","geometry":{"type":"Point","coordinates":[11.0337773,43.098801,451.9]},"properties":{"name":"Inizio di Valle Buia","description":{"@type":"html","value":"mercoledì 8 dicembre 2021 16.37 CET<br>Altezza: 452 m"},"styleUrl":"#icon-61","icon-scale":1.1,"icon-offset":[16,32],"icon-offset-units":["pixels","insetPixels"],"icon":"https://www.gstatic.com/mapspro/images/stock/61-green-dot.png"}},
{"type":"Feature","geometry":{"type":"Point","coordinates":[10.6827681,44.0541025,417.7]},"properties":{"name":"Inizio di Vico Bruciato 07-08-14","description":{"@type":"html","value":"venerdì 10 dicembre 2021 8.54 CET<br>Altezza: 418 m"},"styleUrl":"#icon-61","icon-scale":1.1,"icon-offset":[16,32],"icon-offset-units":["pixels","insetPixels"],"icon":"https://www.gstatic.com/mapspro/images/stock/61-green-dot.png"}},
{"type":"Feature","geometry":{"type":"Point","coordinates":[10.5975022,43.9327313,895.7]},"properties":{"name":"Fine di Abetaia Pizzorne","description":{"@type":"html","value":"venerdì 6 ottobre 2017 15.45 CEST<br>Altezza: 896 m"},"styleUrl":"#icon-123","icon-scale":1.1,"icon-offset":[16,32],"icon-offset-units":["pixels","insetPixels"],"icon":"https://www.gstatic.com/mapspro/images/stock/123-red-dot.png"}},
{"type":"Feature","geometry":{"type":"Point","coordinates":[10.734433,44.093087,981.4]},"properties":{"name":"Fine di alternativa strada balzo cinghiale","description":{"@type":"html","value":"lunedì 21 settembre 2020 11.00 CEST<br>Altezza: 981 m"},"styleUrl":"#icon-123","icon-scale":1.1,"icon-offset":[16,32],"icon-offset-units":["pixels","insetPixels"],"icon":"https://www.gstatic.com/mapspro/images/stock/123-red-dot.png"}},
{"type":"Feature","geometry":{"type":"Point","coordinates":[10.68977,44.06263,815.6]},"properties":{"name":"Fine di BalzoNero a PiandiNovello","description":{"@type":"html","value":"lunedì 21 settembre 2020 17.18 CEST<br>Altezza: 816 m"},"styleUrl":"#icon-123","icon-scale":1.1,"icon-offset":[16,32],"icon-offset-units":["pixels","insetPixels"],"icon":"https://www.gstatic.com/mapspro/images/stock/123-red-dot.png"}},
{"type":"Feature","geometry":{"type":"Point","coordinates":[10.5825786,43.4788496,316.1]},"properties":{"name":"Fine di Boschetto di Andrea","description":{"@type":"html","value":"martedì 22 settembre 2020 15.57 CEST<br>Altezza: 316 m"},"styleUrl":"#icon-123","icon-scale":1.1,"icon-offset":[16,32],"icon-offset-units":["pixels","insetPixels"],"icon":"https://www.gstatic.com/mapspro/images/stock/123-red-dot.png"}},
{"type":"Feature","geometry":{"type":"Point","coordinates":[10.505934,43.755448,620.7]},"properties":{"name":"Fine di campo di croce","description":{"@type":"html","value":"giovedì 14 ottobre 2021 10.37 CEST<br>Altezza: 621 m"},"styleUrl":"#icon-123","icon-scale":1.1,"icon-offset":[16,32],"icon-offset-units":["pixels","insetPixels"],"icon":"https://www.gstatic.com/mapspro/images/stock/123-red-dot.png"}},
{"type":"Feature","geometry":{"type":"Point","coordinates":[10.516246,43.761785,685.1]},"properties":{"name":"Fine di campo di croce1","description":{"@type":"html","value":"giovedì 14 ottobre 2021 11.03 CEST<br>Altezza: 685 m"},"styleUrl":"#icon-123","icon-scale":1.1,"icon-offset":[16,32],"icon-offset-units":["pixels","insetPixels"],"icon":"https://www.gstatic.com/mapspro/images/stock/123-red-dot.png"}},
{"type":"Feature","geometry":{"type":"Point","coordinates":[10.580875,43.951405,807.3]},"properties":{"name":"Fine di catino pizzorne","description":{"@type":"html","value":"giovedì 14 ottobre 2021 23.09 CEST<br>Altezza: 807 m"},"styleUrl":"#icon-123","icon-scale":1.1,"icon-offset":[16,32],"icon-offset-units":["pixels","insetPixels"],"icon":"https://www.gstatic.com/mapspro/images/stock/123-red-dot.png"}},
{"type":"Feature","geometry":{"type":"Point","coordinates":[10.4882893,43.570804,78.3]},"properties":{"name":"Fine di Collesalvetti 21-10-15","description":{"@type":"html","value":"venerdì 15 ottobre 2021 13.37 CEST<br>Altezza: 78 m"},"styleUrl":"#icon-123","icon-scale":1.1,"icon-offset":[16,32],"icon-offset-units":["pixels","insetPixels"],"icon":"https://www.gstatic.com/mapspro/images/stock/123-red-dot.png"}},
{"type":"Feature","geometry":{"type":"Point","coordinates":[10.483962,43.577726,65.5]},"properties":{"name":"Fine di Maps3D 2021-10-14 01-30pm","description":{"@type":"html","value":"venerdì 15 ottobre 2021 14.58 CEST<br>Altezza: 66 m"},"styleUrl":"#icon-123","icon-scale":1.1,"icon-offset":[16,32],"icon-offset-units":["pixels","insetPixels"],"icon":"https://www.gstatic.com/mapspro/images/stock/123-red-dot.png"}},
{"type":"Feature","geometry":{"type":"Point","coordinates":[10.636817,44.114949,1723.5]},"properties":{"name":"Fine di Lago Nero sentiero 104","description":{"@type":"html","value":"sabato 16 ottobre 2021 13.10 CEST<br>Altezza: 1724 m"},"styleUrl":"#icon-123","icon-scale":1.1,"icon-offset":[16,32],"icon-offset-units":["pixels","insetPixels"],"icon":"https://www.gstatic.com/mapspro/images/stock/123-red-dot.png"}},
{"type":"Feature","geometry":{"type":"Point","coordinates":[10.597236,43.957389,947.3]},"properties":{"name":"Fine di lugnano","description":{"@type":"html","value":"sabato 16 ottobre 2021 20.43 CEST<br>Altezza: 947 m"},"styleUrl":"#icon-123","icon-scale":1.1,"icon-offset":[16,32],"icon-offset-units":["pixels","insetPixels"],"icon":"https://www.gstatic.com/mapspro/images/stock/123-red-dot.png"}},
{"type":"Feature","geometry":{"type":"Point","coordinates":[10.25804,44.228472,1009.3]},"properties":{"name":"Fine di Magliano Cerro","description":{"@type":"html","value":"domenica 17 ottobre 2021 11.38 CEST<br>Altezza: 1009 m"},"styleUrl":"#icon-123","icon-scale":1.1,"icon-offset":[16,32],"icon-offset-units":["pixels","insetPixels"],"icon":"https://www.gstatic.com/mapspro/images/stock/123-red-dot.png"}},
{"type":"Feature","geometry":{"type":"Point","coordinates":[10.5815001,43.4795877,320.5]},"properties":{"name":"Fine di Maiali Quercione","description":{"@type":"html","value":"lunedì 18 ottobre 2021 18.18 CEST<br>Altezza: 321 m"},"styleUrl":"#icon-123","icon-scale":1.1,"icon-offset":[16,32],"icon-offset-units":["pixels","insetPixels"],"icon":"https://www.gstatic.com/mapspro/images/stock/123-red-dot.png"}},
{"type":"Feature","geometry":{"type":"Point","coordinates":[10.597098,43.956988,942.8]},"properties":{"name":"Fine di Maps3D 2020-10-25 12-08am","description":{"@type":"html","value":"mercoledì 20 ottobre 2021 23.54 CEST<br>Altezza: 943 m"},"styleUrl":"#icon-123","icon-scale":1.1,"icon-offset":[16,32],"icon-offset-units":["pixels","insetPixels"],"icon":"https://www.gstatic.com/mapspro/images/stock/123-red-dot.png"}},
{"type":"Feature","geometry":{"type":"Point","coordinates":[10.4377627,43.5867,11.2]},"properties":{"name":"Fine di Nugola 23-10-15","description":{"@type":"html","value":"sabato 20 novembre 2021 23.17 CET<br>Altezza: 11 m"},"styleUrl":"#icon-123","icon-scale":1.1,"icon-offset":[16,32],"icon-offset-units":["pixels","insetPixels"],"icon":"https://www.gstatic.com/mapspro/images/stock/123-red-dot.png"}},
{"type":"Feature","geometry":{"type":"Point","coordinates":[10.4385432,43.5859763,4.1]},"properties":{"name":"Fine di Nugola 31-10-14","description":{"@type":"html","value":"domenica 21 novembre 2021 2.05 CET<br>Altezza: 4 m"},"styleUrl":"#icon-123","icon-scale":1.1,"icon-offset":[16,32],"icon-offset-units":["pixels","insetPixels"],"icon":"https://www.gstatic.com/mapspro/images/stock/123-red-dot.png"}},
{"type":"Feature","geometry":{"type":"Point","coordinates":[10.584874,43.949882,741.3]},"properties":{"name":"Fine di Maps3D 2021-10-23 12-33am","description":{"@type":"html","value":"martedì 23 novembre 2021 14.45 CET<br>Altezza: 741 m"},"styleUrl":"#icon-123","icon-scale":1.1,"icon-offset":[16,32],"icon-offset-units":["pixels","insetPixels"],"icon":"https://www.gstatic.com/mapspro/images/stock/123-red-dot.png"}},
{"type":"Feature","geometry":{"type":"Point","coordinates":[10.5382353,43.6089077,7.5]},"properties":{"name":"Fine di Acciaiolo 25-10-14","description":{"@type":"html","value":"mercoledì 24 novembre 2021 8.50 CET<br>Altezza: 8 m"},"styleUrl":"#icon-123","icon-scale":1.1,"icon-offset":[16,32],"icon-offset-units":["pixels","insetPixels"],"icon":"https://www.gstatic.com/mapspro/images/stock/123-red-dot.png"}},
{"type":"Feature","geometry":{"type":"Point","coordinates":[10.5382353,43.6089077,7.5]},"properties":{"name":"Fine di Acciaiolo 25-10-14","description":{"@type":"html","value":"mercoledì 24 novembre 2021 14.30 CET<br>Altezza: 8 m"},"styleUrl":"#icon-123","icon-scale":1.1,"icon-offset":[16,32],"icon-offset-units":["pixels","insetPixels"],"icon":"https://www.gstatic.com/mapspro/images/stock/123-red-dot.png"}},
{"type":"Feature","geometry":{"type":"Point","coordinates":[10.6973433,44.0651026,656.4]},"properties":{"name":"Fine di Balzo Nero 17-10-13","description":{"@type":"html","value":"giovedì 25 novembre 2021 13.24 CET<br>Altezza: 656 m"},"styleUrl":"#icon-123","icon-scale":1.1,"icon-offset":[16,32],"icon-offset-units":["pixels","insetPixels"],"icon":"https://www.gstatic.com/mapspro/images/stock/123-red-dot.png"}},
{"type":"Feature","geometry":{"type":"Point","coordinates":[10.6097848,43.9325044,881.2]},"properties":{"name":"Fine di Pizzorne 3","description":{"@type":"html","value":"giovedì 25 novembre 2021 19.42 CET<br>Altezza: 881 m"},"styleUrl":"#icon-123","icon-scale":1.1,"icon-offset":[16,32],"icon-offset-units":["pixels","insetPixels"],"icon":"https://www.gstatic.com/mapspro/images/stock/123-red-dot.png"}},
{"type":"Feature","geometry":{"type":"Point","coordinates":[10.5888843,43.9506855,808.6]},"properties":{"name":"Fine di Pizzorne 2017","description":{"@type":"html","value":"giovedì 25 novembre 2021 23.09 CET<br>Altezza: 809 m"},"styleUrl":"#icon-123","icon-scale":1.1,"icon-offset":[16,32],"icon-offset-units":["pixels","insetPixels"],"icon":"https://www.gstatic.com/mapspro/images/stock/123-red-dot.png"}},
{"type":"Feature","geometry":{"type":"Point","coordinates":[10.598443,43.953124,962.6]},"properties":{"name":"Fine di Pizzorne da solo 30-10-21","description":{"@type":"html","value":"venerdì 26 novembre 2021 3.07 CET<br>Altezza: 963 m"},"styleUrl":"#icon-123","icon-scale":1.1,"icon-offset":[16,32],"icon-offset-units":["pixels","insetPixels"],"icon":"https://www.gstatic.com/mapspro/images/stock/123-red-dot.png"}},
{"type":"Feature","geometry":{"type":"Point","coordinates":[10.59556,43.942377,823.2]},"properties":{"name":"Fine di pizzorne Terios","description":{"@type":"html","value":"venerdì 26 novembre 2021 8.03 CET<br>Altezza: 823 m"},"styleUrl":"#icon-123","icon-scale":1.1,"icon-offset":[16,32],"icon-offset-units":["pixels","insetPixels"],"icon":"https://www.gstatic.com/mapspro/images/stock/123-red-dot.png"}},
{"type":"Feature","geometry":{"type":"Point","coordinates":[10.4731331,44.1362897,771.4]},"properties":{"name":"Fine di Fosciandora 09-10-15","description":{"@type":"html","value":"domenica 28 novembre 2021 2.20 CET<br>Altezza: 771 m"},"styleUrl":"#icon-123","icon-scale":1.1,"icon-offset":[16,32],"icon-offset-units":["pixels","insetPixels"],"icon":"https://www.gstatic.com/mapspro/images/stock/123-red-dot.png"}},
{"type":"Feature","geometry":{"type":"Point","coordinates":[10.5361988,43.4846155,111.5]},"properties":{"name":"Fine di Monteforti 18-10-12","description":{"@type":"html","value":"lunedì 29 novembre 2021 5.06 CET<br>Altezza: 112 m"},"styleUrl":"#icon-123","icon-scale":1.1,"icon-offset":[16,32],"icon-offset-units":["pixels","insetPixels"],"icon":"https://www.gstatic.com/mapspro/images/stock/123-red-dot.png"}},
{"type":"Feature","geometry":{"type":"Point","coordinates":[10.3658981,44.2186127,1243.8]},"properties":{"name":"Fine di Parco dell'orecchiella","description":{"@type":"html","value":"martedì 30 novembre 2021 13.57 CET<br>Altezza: 1244 m"},"styleUrl":"#icon-123","icon-scale":1.1,"icon-offset":[16,32],"icon-offset-units":["pixels","insetPixels"],"icon":"https://www.gstatic.com/mapspro/images/stock/123-red-dot.png"}},
{"type":"Feature","geometry":{"type":"Point","coordinates":[10.6035562,43.9493187,963.6]},"properties":{"name":"Fine di Pizzorne 2","description":{"@type":"html","value":"mercoledì 1 dicembre 2021 3.43 CET<br>Altezza: 964 m"},"styleUrl":"#icon-123","icon-scale":1.1,"icon-offset":[16,32],"icon-offset-units":["pixels","insetPixels"],"icon":"https://www.gstatic.com/mapspro/images/stock/123-red-dot.png"}},
{"type":"Feature","geometry":{"type":"Point","coordinates":[10.5921991,43.9525299,923]},"properties":{"name":"Fine di Pizzorne","description":{"@type":"html","value":"mercoledì 1 dicembre 2021 6.39 CET<br>Altezza: 923 m"},"styleUrl":"#icon-123","icon-scale":1.1,"icon-offset":[16,32],"icon-offset-units":["pixels","insetPixels"],"icon":"https://www.gstatic.com/mapspro/images/stock/123-red-dot.png"}},
{"type":"Feature","geometry":{"type":"Point","coordinates":[10.6075305,43.4762262,583]},"properties":{"name":"Fine di Santa Luce 99","description":{"@type":"html","value":"giovedì 2 dicembre 2021 1.16 CET<br>Altezza: 583 m"},"styleUrl":"#icon-123","icon-scale":1.1,"icon-offset":[16,32],"icon-offset-units":["pixels","insetPixels"],"icon":"https://www.gstatic.com/mapspro/images/stock/123-red-dot.png"}},
{"type":"Feature","geometry":{"type":"Point","coordinates":[10.5867831,43.4880847,380]},"properties":{"name":"Fine di Santa Luce 26-10-13","description":{"@type":"html","value":"giovedì 2 dicembre 2021 3.50 CET<br>Altezza: 380 m"},"styleUrl":"#icon-123","icon-scale":1.1,"icon-offset":[16,32],"icon-offset-units":["pixels","insetPixels"],"icon":"https://www.gstatic.com/mapspro/images/stock/123-red-dot.png"}},
{"type":"Feature","geometry":{"type":"Point","coordinates":[10.6500509,43.1231074,347.3]},"properties":{"name":"Fine di Sassetta","description":{"@type":"html","value":"giovedì 2 dicembre 2021 19.49 CET<br>Altezza: 347 m"},"styleUrl":"#icon-123","icon-scale":1.1,"icon-offset":[16,32],"icon-offset-units":["pixels","insetPixels"],"icon":"https://www.gstatic.com/mapspro/images/stock/123-red-dot.png"}},
{"type":"Feature","geometry":{"type":"Point","coordinates":[10.7304561,44.0936594,1075.3]},"properties":{"name":"Fine di Pian degli Ontani Balzo nero","description":{"@type":"html","value":"sabato 4 dicembre 2021 13.01 CET<br>Altezza: 1075 m"},"styleUrl":"#icon-123","icon-scale":1.1,"icon-offset":[16,32],"icon-offset-units":["pixels","insetPixels"],"icon":"https://www.gstatic.com/mapspro/images/stock/123-red-dot.png"}},
{"type":"Feature","geometry":{"type":"Point","coordinates":[10.5695718,43.4962617,221.3]},"properties":{"name":"Fine di Quercione","description":{"@type":"html","value":"domenica 5 dicembre 2021 14.38 CET<br>Altezza: 221 m"},"styleUrl":"#icon-123","icon-scale":1.1,"icon-offset":[16,32],"icon-offset-units":["pixels","insetPixels"],"icon":"https://www.gstatic.com/mapspro/images/stock/123-red-dot.png"}},
{"type":"Feature","geometry":{"type":"Point","coordinates":[10.5410835,44.1305094,1297.3]},"properties":{"name":"Fine di Renaio 17-10-15","description":{"@type":"html","value":"lunedì 6 dicembre 2021 18.40 CET<br>Altezza: 1297 m"},"styleUrl":"#icon-123","icon-scale":1.1,"icon-offset":[16,32],"icon-offset-units":["pixels","insetPixels"],"icon":"https://www.gstatic.com/mapspro/images/stock/123-red-dot.png"}},
{"type":"Feature","geometry":{"type":"Point","coordinates":[10.5896657,43.4856115,376.3]},"properties":{"name":"Fine di Santa Luce 30-09-16","description":{"@type":"html","value":"martedì 7 dicembre 2021 22.06 CET<br>Altezza: 376 m"},"styleUrl":"#icon-123","icon-scale":1.1,"icon-offset":[16,32],"icon-offset-units":["pixels","insetPixels"],"icon":"https://www.gstatic.com/mapspro/images/stock/123-red-dot.png"}},
{"type":"Feature","geometry":{"type":"Point","coordinates":[11.0342341,43.0991403,441.7]},"properties":{"name":"Fine di Valle Buia","description":{"@type":"html","value":"mercoledì 8 dicembre 2021 20.37 CET<br>Altezza: 442 m"},"styleUrl":"#icon-123","icon-scale":1.1,"icon-offset":[16,32],"icon-offset-units":["pixels","insetPixels"],"icon":"https://www.gstatic.com/mapspro/images/stock/123-red-dot.png"}},
{"type":"Feature","geometry":{"type":"Point","coordinates":[10.685345,44.0512216,454.5]},"properties":{"name":"Fine di Vico Bruciato 07-08-14","description":{"@type":"html","value":"venerdì 10 dicembre 2021 12.36 CET<br>Altezza: 455 m"},"styleUrl":"#icon-123","icon-scale":1.1,"icon-offset":[16,32],"icon-offset-units":["pixels","insetPixels"],"icon":"https://www.gstatic.com/mapspro/images/stock/123-red-dot.png"}},
{"type":"Feature","geometry":{"type":"Point","coordinates":[10.440072119236,44.2331927058892,1520]},"properties":{"name":"Waypoint 1","styleUrl":"#icon-503-DB4436-nodesc","icon-opacity":1,"icon-color":"#db4436","icon-scale":1.1,"icon-offset":[16,32],"icon-offset-units":["pixels","insetPixels"],"icon":"https://www.gstatic.com/mapspro/images/stock/503-wht-blank_maps.png"}},
{"type":"Feature","geometry":{"type":"Point","coordinates":[10.437550842762,44.2365826995602,1474.9]},"properties":{"name":"Waypoint 2","styleUrl":"#icon-503-DB4436-nodesc","icon-opacity":1,"icon-color":"#db4436","icon-scale":1.1,"icon-offset":[16,32],"icon-offset-units":["pixels","insetPixels"],"icon":"https://www.gstatic.com/mapspro/images/stock/503-wht-blank_maps.png"}},
{"type":"Feature","geometry":{"type":"Point","coordinates":[10.4371511936188,44.2379317243519,1448.3]},"properties":{"name":"Waypoint 3","styleUrl":"#icon-503-DB4436-nodesc","icon-opacity":1,"icon-color":"#db4436","icon-scale":1.1,"icon-offset":[16,32],"icon-offset-units":["pixels","insetPixels"],"icon":"https://www.gstatic.com/mapspro/images/stock/503-wht-blank_maps.png"}},
{"type":"Feature","geometry":{"type":"Point","coordinates":[10.608907,43.589137,71.356773]},"properties":{"name":"Fine di orceto poggini","description":{"@type":"html","value":"domenica 18 settembre 2022 11.36 CEST<br>Altezza: 71 m"},"styleUrl":"#icon-123","icon-scale":1.1,"icon-offset":[16,32],"icon-offset-units":["pixels","insetPixels"],"icon":"https://www.gstatic.com/mapspro/images/stock/123-red-dot.png"}},
{"type":"Feature","geometry":{"type":"Point","coordinates":[10.609456,43.589762,73.004723]},"properties":{"name":"Inizio di orceto poggini","description":{"@type":"html","value":"domenica 18 settembre 2022 8.16 CEST<br>Altezza: 73 m"},"styleUrl":"#icon-61","icon-scale":1.1,"icon-offset":[16,32],"icon-offset-units":["pixels","insetPixels"],"icon":"https://www.gstatic.com/mapspro/images/stock/61-green-dot.png"}},
{"type":"Feature","geometry":{"type":"Point","coordinates":[10.613803,43.593041,35]},"properties":{"name":"Inizio di Maps3D 2022-09-21 06-26pm","description":{"@type":"html","value":"mercoledì 21 settembre 2022 15.37 CEST<br>Altezza: 35 m"},"styleUrl":"#icon-61","icon-scale":1.1,"icon-offset":[16,32],"icon-offset-units":["pixels","insetPixels"],"icon":"https://www.gstatic.com/mapspro/images/stock/61-green-dot.png"}},
{"type":"Feature","geometry":{"type":"Point","coordinates":[10.610882,43.593557,63.2]},"properties":{"name":"Fine di Maps3D 2022-09-21 06-26pm","description":{"@type":"html","value":"mercoledì 21 settembre 2022 16.36 CEST<br>Altezza: 63 m"},"styleUrl":"#icon-123","icon-scale":1.1,"icon-offset":[16,32],"icon-offset-units":["pixels","insetPixels"],"icon":"https://www.gstatic.com/mapspro/images/stock/123-red-dot.png"}},
{"type":"Feature","geometry":{"type":"Point","coordinates":[10.523662,43.580658,53.6]},"properties":{"name":"Inizio di Maps3D 2022-09-21 06-26pm","description":{"@type":"html","value":"mercoledì 21 settembre 2022 17.36 CEST<br>Altezza: 54 m"},"styleUrl":"#icon-61","icon-scale":1.1,"icon-offset":[16,32],"icon-offset-units":["pixels","insetPixels"],"icon":"https://www.gstatic.com/mapspro/images/stock/61-green-dot.png"}},
{"type":"Feature","geometry":{"type":"Point","coordinates":[10.519708,43.57971,40.4]},"properties":{"name":"Fine di Maps3D 2022-09-21 06-26pm","description":{"@type":"html","value":"mercoledì 21 settembre 2022 18.26 CEST<br>Altezza: 40 m"},"styleUrl":"#icon-123","icon-scale":1.1,"icon-offset":[16,32],"icon-offset-units":["pixels","insetPixels"],"icon":"https://www.gstatic.com/mapspro/images/stock/123-red-dot.png"}},
{"type":"Feature","geometry":{"type":"Point","coordinates":[10.587656,43.97029,831.223389]},"properties":{"name":"Fine di pizzorne Poeta","description":{"@type":"html","value":"sabato 8 ottobre 2022, 11:01 CEST<br>Altezza: 831 m"},"styleUrl":"#icon-123","icon-scale":1.1,"icon-offset":[16,32],"icon-offset-units":["pixels","insetPixels"],"icon":"https://www.gstatic.com/mapspro/images/stock/123-red-dot.png"}},
{"type":"Feature","geometry":{"type":"Point","coordinates":[10.58837,43.970239,826.994507]},"properties":{"name":"Inizio di pizzorne Poeta","description":{"@type":"html","value":"sabato 8 ottobre 2022, 09:59 CEST<br>Altezza: 827 m"},"styleUrl":"#icon-61","icon-scale":1.1,"icon-offset":[16,32],"icon-offset-units":["pixels","insetPixels"],"icon":"https://www.gstatic.com/mapspro/images/stock/61-green-dot.png"}},
{"type":"Feature","geometry":{"type":"Point","coordinates":[10.599338,43.957162,948.67749]},"properties":{"name":"Inizio di Maps3D 2022-10-09 11-47am","description":{"@type":"html","value":"domenica 9 ottobre 2022, 11:03 CEST<br>Altezza: 949 m"},"styleUrl":"#icon-61","icon-scale":1.1,"icon-offset":[16,32],"icon-offset-units":["pixels","insetPixels"],"icon":"https://www.gstatic.com/mapspro/images/stock/61-green-dot.png"}},
{"type":"Feature","geometry":{"type":"Point","coordinates":[10.600301,43.95797,952.374268]},"properties":{"name":"Fine di Maps3D 2022-10-09 11-47am","description":{"@type":"html","value":"domenica 9 ottobre 2022, 11:46 CEST<br>Altezza: 952 m"},"styleUrl":"#icon-123","icon-scale":1.1,"icon-offset":[16,32],"icon-offset-units":["pixels","insetPixels"],"icon":"https://www.gstatic.com/mapspro/images/stock/123-red-dot.png"}},
{"type":"Feature","geometry":{"type":"Point","coordinates":[10.6020321,43.9545283,0]},"properties":{"name":"Casa Nel Bosco\n","styleUrl":"#icon-1899-FF5252-nodesc","icon-opacity":1,"icon-color":"#ff5252","icon-scale":1,"icon-offset":[32,64],"icon-offset-units":["pixels","insetPixels"],"icon":"https://www.gstatic.com/mapspro/images/stock/503-wht-blank_maps.png"}},
{"type":"Feature","geometry":{"type":"Point","coordinates":[10.627288,43.484353,477.477356]},"properties":{"name":"Fine di Chianni Rivalto","description":{"@type":"html","value":"domenica 16 ottobre 2022, 10:35 CEST<br>Altezza: 477 m"},"styleUrl":"#icon-123","icon-scale":1.1,"icon-offset":[16,32],"icon-offset-units":["pixels","insetPixels"],"icon":"https://www.gstatic.com/mapspro/images/stock/123-red-dot.png"}},
{"type":"Feature","geometry":{"type":"Point","coordinates":[10.627367,43.484396,477.065918]},"properties":{"name":"Inizio di Chianni Rivalto","description":{"@type":"html","value":"domenica 16 ottobre 2022, 07:34 CEST<br>Altezza: 477 m"},"styleUrl":"#icon-61","icon-scale":1.1,"icon-offset":[16,32],"icon-offset-units":["pixels","insetPixels"],"icon":"https://www.gstatic.com/mapspro/images/stock/61-green-dot.png"}},
{"type":"Feature","geometry":{"type":"Point","coordinates":[10.626297,43.47768,526.274536]},"properties":{"name":"Fungaia","styleUrl":"#icon-503-DB4436-nodesc","icon-opacity":1,"icon-color":"#db4436","icon-scale":1.1,"icon-offset":[16,32],"icon-offset-units":["pixels","insetPixels"],"icon":"https://www.gstatic.com/mapspro/images/stock/503-wht-blank_maps.png"}},
{"type":"Feature","geometry":{"type":"Point","coordinates":[10.622601,43.476692,504.402679]},"properties":{"name":"Fungaia","styleUrl":"#icon-503-DB4436-nodesc","icon-opacity":1,"icon-color":"#db4436","icon-scale":1.1,"icon-offset":[16,32],"icon-offset-units":["pixels","insetPixels"],"icon":"https://www.gstatic.com/mapspro/images/stock/503-wht-blank_maps.png"}},
{"type":"Feature","geometry":{"type":"Point","coordinates":[10.612746,43.47699,553.22644]},"properties":{"name":"Inizio di Maps3D 2022-10-22 12-03am","description":{"@type":"html","value":"sabato 22 ottobre 2022, 08:57 CEST<br>Altezza: 553 m"},"styleUrl":"#icon-61","icon-scale":1.1,"icon-offset":[16,32],"icon-offset-units":["pixels","insetPixels"],"icon":"https://www.gstatic.com/mapspro/images/stock/61-green-dot.png"}},
{"type":"Feature","geometry":{"type":"Point","coordinates":[10.611892,43.476962,556.759277]},"properties":{"name":"Fine di Maps3D 2022-10-22 12-03am","description":{"@type":"html","value":"sabato 22 ottobre 2022, 12:03 CEST<br>Altezza: 557 m"},"styleUrl":"#icon-123","icon-scale":1.1,"icon-offset":[16,32],"icon-offset-units":["pixels","insetPixels"],"icon":"https://www.gstatic.com/mapspro/images/stock/123-red-dot.png"}},
{"type":"Feature","geometry":{"type":"Point","coordinates":[10.62618,43.48058,513.887939]},"properties":{"name":"fungaia rivalto","styleUrl":"#icon-503-DB4436-nodesc","icon-opacity":1,"icon-color":"#db4436","icon-scale":1.1,"icon-offset":[16,32],"icon-offset-units":["pixels","insetPixels"],"icon":"https://www.gstatic.com/mapspro/images/stock/503-wht-blank_maps.png"}},
{"type":"Feature","geometry":{"type":"Point","coordinates":[10.5999175273,43.9482439869,980.0954481069]},"properties":{"name":"Pizzorne Diego","description":"29 Sep 2017  9:33 am","styleUrl":"#icon-503-DB4436","icon-opacity":1,"icon-color":"#db4436","icon-scale":1.1,"icon-offset":[16,32],"icon-offset-units":["pixels","insetPixels"],"icon":"https://www.gstatic.com/mapspro/images/stock/503-wht-blank_maps.png"}},
{"type":"Feature","geometry":{"type":"Point","coordinates":[10.592613,43.483847,407.202759]},"properties":{"name":"Fungaia con Riven 2024-09-28 11-45am","description":{"@type":"html","value":"sabato 28 settembre 2024, 10:32 CEST<br>Altezza: 407 m"},"styleUrl":"#icon-61","icon-scale":1.1,"icon-offset":[16,32],"icon-offset-units":["pixels","insetPixels"],"icon":"https://www.gstatic.com/mapspro/images/stock/61-green-dot.png"}},
{"type":"Feature","geometry":{"type":"Point","coordinates":[10.5969249,43.4938387,0]},"properties":{"name":"25/10/2024 Galletti\n","styleUrl":"#icon-503-DB4436-nodesc","icon-opacity":1,"icon-color":"#db4436","icon-scale":1.1,"icon-offset":[16,32],"icon-offset-units":["pixels","insetPixels"],"icon":"https://www.gstatic.com/mapspro/images/stock/503-wht-blank_maps.png"}},
{"type":"Feature","geometry":{"type":"Point","coordinates":[10.964194,43.117833,0]},"properties":{"name":"Gori cassettate 25/09/2009\n","styleUrl":"#icon-503-DB4436-nodesc","icon-opacity":1,"icon-color":"#db4436","icon-scale":1.1,"icon-offset":[16,32],"icon-offset-units":["pixels","insetPixels"],"icon":"https://www.gstatic.com/mapspro/images/stock/503-wht-blank_maps.png"}},
{"type":"Feature","geometry":{"type":"Point","coordinates":[10.7070023,43.2303881,0]},"properties":{"name":"Fungaia","styleUrl":"#icon-503-F4EB37-nodesc","icon-opacity":1,"icon-color":"#f4eb37","icon-scale":1.1,"icon-offset":[16,32],"icon-offset-units":["pixels","insetPixels"],"icon":"https://www.gstatic.com/mapspro/images/stock/503-wht-blank_maps.png"}},
{"type":"Feature","geometry":{"type":"Point","coordinates":[10.7568635,44.1336944,0]},"properties":{"name":"Aurelio Goti e Luigi Paterni","styleUrl":"#icon-1899-DB4436-nodesc","icon-opacity":1,"icon-color":"#db4436","icon-scale":1,"icon-offset":[32,64],"icon-offset-units":["pixels","insetPixels"],"icon":"https://www.gstatic.com/mapspro/images/stock/503-wht-blank_maps.png"}},
{"type":"Feature","geometry":{"type":"Point","coordinates":[10.7175166,43.2277302,0]},"properties":{"name":"Fungaia","styleUrl":"#icon-503-F4EB37-nodesc","icon-opacity":1,"icon-color":"#f4eb37","icon-scale":1.1,"icon-offset":[16,32],"icon-offset-units":["pixels","insetPixels"],"icon":"https://www.gstatic.com/mapspro/images/stock/503-wht-blank_maps.png"}},
{"type":"Feature","geometry":{"type":"Point","coordinates":[10.6160277777778,43.9764444444444,0]},"properties":{"name":"43°58'35.2\"N 10°36'57.7\"E","styleUrl":"#icon-503-DB4436-nodesc","icon-opacity":1,"icon-color":"#db4436","icon-scale":1.1,"icon-offset":[16,32],"icon-offset-units":["pixels","insetPixels"],"icon":"https://www.gstatic.com/mapspro/images/stock/503-wht-blank_maps.png"}},
{"type":"Feature","geometry":{"type":"Point","coordinates":[10.6166111111111,43.9745,0]},"properties":{"name":"43°58'28.2\"N 10°36'59.8\"E","styleUrl":"#icon-503-DB4436-nodesc","icon-opacity":1,"icon-color":"#db4436","icon-scale":1.1,"icon-offset":[16,32],"icon-offset-units":["pixels","insetPixels"],"icon":"https://www.gstatic.com/mapspro/images/stock/503-wht-blank_maps.png"}},
{"type":"Feature","geometry":{"type":"Point","coordinates":[10.6172777777778,43.9738888888889,0]},"properties":{"name":"43°58'26.0\"N 10°37'02.2\"E","styleUrl":"#icon-503-DB4436-nodesc","icon-opacity":1,"icon-color":"#db4436","icon-scale":1.1,"icon-offset":[16,32],"icon-offset-units":["pixels","insetPixels"],"icon":"https://www.gstatic.com/mapspro/images/stock/503-wht-blank_maps.png"}},
{"type":"Feature","geometry":{"type":"Point","coordinates":[10.6148333333333,43.9704722222222,0]},"properties":{"name":"43°58'13.7\"N 10°36'53.4\"E","styleUrl":"#icon-503-DB4436-nodesc","icon-opacity":1,"icon-color":"#db4436","icon-scale":1.1,"icon-offset":[16,32],"icon-offset-units":["pixels","insetPixels"],"icon":"https://www.gstatic.com/mapspro/images/stock/503-wht-blank_maps.png"}},
{"type":"Feature","geometry":{"type":"Point","coordinates":[10.587698,43.946324,769.31488]},"properties":{"name":"Secondo Ponte di Cemento","description":{"@type":"html","value":"domenica 14 settembre 2025, 11:08 CEST<br>Altezza: 769 m"},"styleUrl":"#icon-123","icon-scale":1.1,"icon-offset":[16,32],"icon-offset-units":["pixels","insetPixels"],"icon":"https://www.gstatic.com/mapspro/images/stock/123-red-dot.png"}}
]}